"UHAWAII_ID"	"PSMSL_ID"	"Site"	"Basin"	"Lat"	"Lon"	"Region"	"GPD_Record_Start"	"GPD_Record_End"	"Annual_Trend"	"Trend_Start"	"Trend_End"	"Lambda"	"Q99"	"Shape50"	"Shape5"	"Shape95"	"Scale50"	"Scale5"	"Scale95"	"Vshape"	"Vscale"	"Vscaleshape"
"551a"	"55100000"	"San Francisco,CA"	"pacific"	37.87	-122.6	"USA"	1897	2016	1.92021791767555	1897	2016	1.69170526363823	0.431656588622713	-0.00791036925042231	-0.15454736805143	0.138726629550586	0.0899949072330985	0.0719072393492382	0.108082575116959	0.00559745930414047	8.51665330145899e-05	-0.000507041730394103
"057b"	"05700000"	"Honolulu-B,Hawaii"	"pacific"	21.37	-157.87	"USA"	1905	2016	1.43456470223428	1905	2016	1.40178571428571	0.262183377481773	-0.163288616096105	-0.272414112199953	-0.0541631199922575	0.0446287807871004	0.0362058753426011	0.0530516862315997	0.003099961357326	1.84683318079033e-05	-0.000177196356879922
"569a"	"56900000"	"San Diego,CA"	"pacific"	32.83	-117.23	"USA"	1906	2016	2.1375071723021	1906	2016	1.96395185358755	0.536629382766692	-0.103323974893722	-0.224707930825634	0.018059981038189	0.0563648783451397	0.0462660970964368	0.0664636595938425	0.00383553890472731	2.65486075653741e-05	-0.000239941876670044
"302a"	"30200000"	"Balboa"	"pacific"	9.1	-79.63	"Panama"	1907	2016	1.39934550850456	1907	2016	1.84543157947135	0.983622881442238	-0.0750363461449483	-0.162420838197459	0.0123481459075621	0.109539749402554	0.091728253730931	0.127351245074177	0.0019877993771896	8.25856511466971e-05	-0.000255154183791899
"567a"	"56700000"	"Los Angeles,CA"	"pacific"	33.75	-118.32	"USA"	1923	2016	0.964906663012096	1923	2016	1.91486573076251	0.514038959770369	-0.208376980946028	-0.328375375992121	-0.088378585899935	0.0648815452650852	0.0527835246125473	0.0769795659176231	0.00374847564057352	3.81006566882285e-05	-0.000302685808375581
"540a"	"54000000"	"Prince Rupert"	"pacific"	54.32	-130.38	"Canada"	1924	2016	1.1837342037546	1924	2016	1.99995584209132	1.16375177887904	-0.227639964503415	-0.370448959781269	-0.0848309692255602	0.184434150386272	0.147561012843975	0.221307287928569	0.00530902713896205	0.000353935402063604	-0.00115347342490747
"554a"	"55400000"	"La Jolla,CA"	"pacific"	32.87	-117.32	"USA"	1924	2016	2.1709356153564	1924	2016	1.892431334452	0.51671438868087	-0.196704505827106	-0.343866098761151	-0.0495429128930607	0.0644317057828986	0.0511384014306248	0.0777250101351725	0.00563758078525294	4.60012585974442e-05	-0.000420860135960717
"572a"	"57200000"	"Astoria,OR"	"pacific"	46.28	-123.77	"USA"	1925	2016	-0.194968927010132	1925	2016	1.69565217391304	0.681276581238108	-0.253349325546937	-0.423292150413748	-0.0834065006801262	0.163490355889378	0.126238744827223	0.200741966951532	0.00751812399188834	0.000361238423083052	-0.00142740299570224
"060a"	"06000000"	"Hilo, Hawaii"	"pacific"	19.73	-155.07	"USA"	1927	2016	2.99884197828708	1927	2016	1.6444194323609	0.293899823965037	0.0518615201677504	-0.0747276536150557	0.178450693950556	0.0439553421635483	0.0349641637013196	0.052946520625777	0.00417154515172387	2.10444245046048e-05	-0.000167219842311462
"542a"	"54200000"	"Tofino"	"pacific"	49.18	-126.03	"Canada"	1930	2016	-1.24181652892321	1930	2016	1.71263020423577	0.734117404042871	-0.244252634835071	-0.385368730267036	-0.103136539403105	0.187661286501507	0.14823003328395	0.227092539719065	0.00518390364688731	0.000404748248746345	-0.00120531154124362
"556a"	"55600000"	"Crescent City,CA"	"pacific"	41.85	-124.18	"USA"	1933	2016	-0.817156331273779	1933	2016	1.57142857142857	0.600468231350226	-0.158561871808508	-0.274932494350005	-0.0421912492670111	0.14023724083109	0.111531175012724	0.168943306649455	0.00352525496765538	0.000214511791803991	-0.000636123022804459
"558a"	"55800000"	"Neah Bay,WA"	"pacific"	48.38	-124.62	"USA"	1934	2016	-1.66439903445263	1934	2016	1.67468498482649	0.755439955590931	-0.307294338581397	-0.468254431654351	-0.146334245508443	0.187043257876366	0.144832009878922	0.229254505873809	0.00674435228160862	0.000463831461085334	-0.00154803589463655
"571a"	"57100000"	"Ketchikan,AK"	"pacific"	55.33	-131.7	"USA"	1937	2016	-0.303787417456504	1937	2016	1.9625	1.13532066441076	-0.235247072566134	-0.391535143937566	-0.0789590011947022	0.184702306716425	0.144433681021043	0.224970932411807	0.006358511803229	0.00042212146246612	-0.00138606299932073
"559a"	"55900000"	"Sitka,AK"	"pacific"	57.07	-135.42	"USA"	1938	2016	-2.31993268400986	1938	2016	1.96200831744932	0.824113657992761	-0.157266016901305	-0.305618175212713	-0.00891385858989793	0.161095647580884	0.126481487932153	0.195709807229614	0.00572916798094849	0.000311897147441326	-0.0010606087114182
"071a"	"07100000"	"Wellington"	"pacific"	-41.28	174.78	"New Zealand"	1944	2016	2.69915169894522	1944	2016	2.28760688568857	0.327457270468668	-0.101617505459069	-0.242505551143647	0.039270540225509	0.0595516468025801	0.0472641121116974	0.0718391814934628	0.00516716235766732	3.93036905579439e-05	-0.000340294448174605
"081a"	"08100000"	"Valparaiso"	"pacific"	-33.12	-71.72	"Chile"	1944	2016	-1.20493882826201	1944	2016	1.80816831683168	0.397738659553516	-0.156201769220569	-0.290736041802835	-0.021667496638304	0.0581269520027572	0.0456046264947777	0.0706492775107368	0.0047116138279907	4.08200747286578e-05	-0.000331826407565139
"080a"	"08000000"	"Antofagasta"	"pacific"	-23.68	-70.45	"Chile"	1945	2016	-0.872264902788109	1945	2016	1.47222222222222	0.341412010511869	-0.0448854333844267	-0.247938244864765	0.158167378095911	0.0564450840909377	0.0407571613634981	0.0721330068183772	0.0107330173703696	6.40670461378638e-05	-0.00062807147721789
"050a"	"05000000"	"Midway"	"pacific"	28.22	-177.37	"USA Trust"	1947	2016	1.24060984216245	1947	2016	2.41423850125156	0.269661096748949	-0.00541861469335239	-0.161142733340452	0.150305503953748	0.107018613955292	0.0838274802258646	0.13020974768472	0.00631270625570164	0.00014000636444647	-0.000678876120821567
"053a"	"05300000"	"Apra Harbor, Guam"	"pacific"	13.43	144.65	"USA Trust"	1948	2016	1.8321759859583	1948	2016	1.10141649803595	0.187142754801496	0.0908002187826195	-0.113660215374521	0.29526065293976	0.0353199381118318	0.024634153599653	0.0460057226240107	0.0108823421223536	2.97246426346146e-05	-0.00033754014220919
"052a"	"05200000"	"Johnston"	"pacific"	16.78	-169.65	"USA Trust"	1947	2015	0.920631599664186	1947	2015	1.81161217363701	0.293310159665455	-0.0190839863530001	-0.15737280270606	0.11920483000006	0.0880882939040741	0.0684293777699006	0.107747210038248	0.00497826414936677	0.000100605785877105	-0.000451558423927257
"565a"	"56500000"	"Port San Luis, CA"	"pacific"	35.27	-120.85	"USA"	1948	2016	0.825713150454062	1948	2016	1.72458635876681	0.485724134291914	-0.129380771009376	-0.286422370250725	0.0276608282319732	0.0849868002488003	0.0648118598419309	0.10516174065567	0.00641997351616129	0.000105956679329231	-0.000625877770272004
"056a"	"05600000"	"Pago Pago"	"pacific"	-14.28	-170.68	"USA Trust"	1948	2016	3.20824852351503	1948	2016	1.15938578740626	0.277785423511799	-0.309882112356857	-0.465993303773708	-0.153770920940007	0.0651732018236248	0.048207067561868	0.0821393360853817	0.00634412738054158	7.49323955361176e-05	-0.000589407541803131
"055a"	"05500000"	"Kwajalein"	"pacific"	8.73	167.73	"Rep. of Marshall I"	1946	2014	2.45620878069876	1946	2014	2.01451273708436	0.423545674063716	-0.313815087768664	-0.441697403900717	-0.18593277163661	0.0444072930003197	0.0353764582692863	0.0534381277313531	0.00425720736382734	2.12304699193685e-05	-0.000260027098077137
"059a"	"05900000"	"Kahului"	"pacific"	20.9	-156.47	"USA"	1950	2016	1.94408916486283	1950	2016	1.94027868584505	0.259240180054805	-0.0166781772105551	-0.167536153883187	0.134179799462077	0.0376176450887051	0.0290332973605652	0.046201992816845	0.00592434546041762	1.9183083655783e-05	-0.000227130353120432
"051a"	"05100000"	"Wake"	"pacific"	19.28	166.62	"USA Trust"	1950	2016	1.98596892330576	1950	2016	1.43282118339327	0.316317700609726	0.374535380377308	0.133716451924425	0.61535430883019	0.0449328356042619	0.0312898558557102	0.0585758153528137	0.0150968054086066	4.84531801868337e-05	-0.000436828660455633
"091a"	"09100000"	"La Libertad"	"pacific"	-2.2	-80.92	"Ecuador"	1949	2015	5.61608153194665	1949	2015	1.53736054922153	0.531957737972883	-0.189919410086052	-0.365244476221523	-0.0145943439505816	0.0961981383802187	0.0713638879347591	0.121032388825678	0.00800187643553939	0.000160548381220542	-0.000913337617842503
"040a"	"04000000"	"Adak,Alaska"	"pacific"	51.98	-176.77	"USA"	1950	2016	-1.92074206774276	1950	2016	1.67162471395881	0.563820859771953	-0.0658237379505273	-0.290086492760338	0.158439016859284	0.085960750142398	0.0609916930121171	0.110929807272679	0.0130923655679843	0.00016229610756639	-0.00117217653729816
"303a"	"30300000"	"Tumaco"	"pacific"	1.82	-78.85	"Colombia"	1951	2014	-1.0932585604132	1951	2014	1.9375	0.694367827387555	-0.0629487664472117	-0.21484543686329	0.0889479039688665	0.0692091760429295	0.0531459560001185	0.0852723960857405	0.00600620742286693	6.71690235891015e-05	-0.000448470357359938
"058a"	"05800000"	"Nawiliwili"	"pacific"	21.97	-159.35	"USA"	1954	2016	1.50394097353378	1954	2016	1.38093737777585	0.262183618050201	0.152193103058271	-0.00522772045908526	0.309613926575627	0.0357083208522385	0.0264212731518403	0.0449953685526368	0.00645101687499145	2.24522138633488e-05	-0.000158031935966086
"085a"	"08500000"	"Buenaventura"	"pacific"	3.95	-77.17	"Colombia"	1953	2014	2.26912138901362	1953	2014	2.01617354824465	0.837633123124186	-0.0873756113971567	-0.22200299860321	0.0472517758088966	0.0831642335252891	0.0648346315993229	0.101493835451255	0.00471813814280421	8.74600828608322e-05	-0.000445279771810403
"076a"	"07600000"	"Taranaki"	"pacific"	-39.05	174.03	"New Zealand"	1955	2016	1.36321170300203	1955	2016	1.85479775677824	0.684584190212244	0.222639012696	0.0750857009242034	0.370192324467796	0.0943074077850398	0.0724947078217083	0.116120107748371	0.00566763326930337	0.000123857602514752	-0.000311272615358701
"061a"	"06100000"	"Mokuoloe"	"pacific"	21.43	-157.8	"USA"	1957	2016	1.17718257405162	1957	2016	1.53333333333333	0.261947639867093	-0.204365732112222	-0.342791582988468	-0.0659398812359759	0.0479247334322344	0.0362794967463168	0.059569970118152	0.0049881352593415	3.53020932413735e-05	-0.000324141695583863
"359a"	"35900000"	"Naze"	"pacific"	28.4	129.63	"Japan"	1957	2015	2.94394067034036	1957	2015	1.52547682027008	0.510319875432985	0.111564119879567	-0.125479885420732	0.348608125179866	0.0688127818647238	0.0472456764910197	0.0903798872384279	0.0146272192600662	0.000121084217197572	-0.000911175647575745
"570a"	"57000000"	"Yakutat,AK"	"pacific"	59.68	-139.75	"USA"	1961	2016	-10.3749194479714	1961	2016	1.83928571428571	0.897906287292167	-0.379782847523921	-0.565691104833899	-0.193874590213944	0.20773507387525	0.154175483224431	0.261294664526069	0.00899707162025171	0.00074675530432082	-0.00234434456142282
"354a"	"35400000"	"Aburatsu"	"pacific"	31.58	131.42	"Japan"	1961	2016	2.31520847573479	1961	2016	1.51785714285714	0.491273552409972	0.0515996013854388	-0.171194006630102	0.274393209400979	0.111900402408504	0.0774705957698115	0.146330209047196	0.0129213910885066	0.000308583702314305	-0.00137416877633312
"353a"	"35300000"	"Kushimoto"	"pacific"	33.48	135.77	"Japan"	1961	2016	4.25930356057784	1961	2016	1.64285714285714	0.443878993987759	-0.117961057404582	-0.351182051158743	0.11525993634958	0.0960356133660526	0.0663577258535958	0.125713500878509	0.0141592125456783	0.000229281907815137	-0.00146796803420234
"350a"	"35000000"	"Kushiro"	"pacific"	42.97	144.37	"Japan"	1963	2016	8.36930893754718	1963	2016	2.68511711620361	0.305087456144498	-0.0527496909907166	-0.209271378528525	0.103771996547091	0.0725680458893984	0.0562027035199912	0.0889333882588057	0.00637753515349578	6.97194590308072e-05	-0.000487547099478524
"364a"	"36400000"	"Hakodate"	"pacific"	41.78	140.72	"Japan"	1964	2016	-0.55898052217156	1964	2016	2.79234464590113	0.303068483788778	-0.165574531243394	-0.343999430992754	0.0128503685059661	0.0685888763981523	0.0522142620087274	0.0849634907875773	0.00828733206225459	6.97984825342767e-05	-0.000632070773844772
"583b"	"58300000"	"Cordova-B,Alaska"	"pacific"	60.63	-145.78	"USA"	1964	2016	3.63853797161756	1964	2016	1.8867193553386	0.981288407653339	-0.0875254081231988	-0.325371564018526	0.150320747772128	0.14261926991235	0.0987562277391225	0.186482312085577	0.0147263830004983	0.000500842663814537	-0.00221240055877728
"357a"	"35700000"	"Miyakejima"	"pacific"	34.07	139.62	"Japan"	1964	2015	7.49940237343123	1964	2015	1.30769230769231	0.594640809240013	0.119810943212825	-0.114791336839915	0.354413223265566	0.082482817550463	0.0550476505040502	0.109917984596876	0.0143274293373785	0.000195938164639383	-0.00101860807017125
"352a"	"35200000"	"Mera"	"pacific"	34.92	139.82	"Japan"	1965	2016	4.21464936411115	1965	2016	2.25	0.34839817128228	0.117558476965781	-0.0759038547932975	0.31102080872486	0.064253717812295	0.0472881292301092	0.0812193063944809	0.00974308864331312	7.49275755318356e-05	-0.000553501425757519
"351a"	"35100000"	"Ofunato"	"pacific"	39.02	141.75	"Japan"	1965	2016	3.47159946717158	1965	2016	2.21153846153846	0.327052415439759	-0.0238407251520259	-0.178079066987657	0.130397616683605	0.0610575620111822	0.0464693517994961	0.0756457722228682	0.00619282080131899	5.53997549144328e-05	-0.0003901641268083
"333a"	"33300000"	"Fort Denison"	"pacific"	-33.9	151.32	"Australia"	1965	2015	1.07734866916157	1965	2015	1.64712514092446	0.444505723738311	-0.141536808549	-0.288893574230851	0.00581995713285074	0.0792462350259967	0.0588163553243539	0.0996761147276395	0.00565254436029393	0.000108651427518928	-0.000562467955502434
"355a"	"35500000"	"Naha"	"pacific"	26.22	127.67	"Japan"	1966	2016	2.15294117647059	1966	2016	1.52939123899506	0.490544090190442	0.0554287352508609	-0.155191485389853	0.266048955891575	0.0736464648977683	0.0511435555891893	0.0961493742063474	0.0115479247372818	0.000131819954602203	-0.000794804790498994
"363a"	"36300000"	"Nishinoomote"	"pacific"	30.75	131.07	"Japan"	1965	2015	2.50900360144057	1965	2015	1.49025607988404	0.497147284284918	-0.031294562407153	-0.2485836106587	0.185994485844394	0.079449446141116	0.0546264634661174	0.104272428816115	0.0122907813655885	0.00016040272657978	-0.00100773596909236
"349a"	"34900000"	"Toyama"	"pacific"	36.77	137.23	"Japan"	1967	2016	2.89642857142856	1967	2016	1.85994907736955	0.319817508544793	0.0176164402665624	-0.198265092349862	0.233497972882987	0.0492111956379246	0.0346389022156528	0.0637834890601964	0.012132067087054	5.52789306085589e-05	-0.000586830503050706
"019a"	"01900000"	"Noumea"	"pacific"	-22.32	166.42	"France"	1967	2016	1.02857142857143	1967	2016	1.61995564803154	0.316676040629973	-0.195386663707045	-0.392790102474759	0.00201677506066911	0.0539986462276938	0.0383112990534071	0.0696859934019805	0.0101440935478458	6.4062345284267e-05	-0.000652283022227967
"560c"	"56000000"	"Seward-C,AK"	"pacific"	60.15	-149.52	"USA"	1967	2016	-2.61502826416654	1967	2016	1.81995017247988	0.922021464553226	-0.124687391233532	-0.346916833096111	0.0975420506290471	0.148834710932809	0.103955933499722	0.193713488365896	0.0128560339016285	0.00052430723792703	-0.00209174889755962
"360a"	"36000000"	"Wakkanai"	"pacific"	45.4	141.68	"Japan"	1967	2016	2.72792316926771	1967	2016	2.8399222471664	0.307948290485498	0.154869203317205	-0.0413394445771458	0.351077851211557	0.051871538808693	0.0386695754135367	0.0650735022038494	0.0100216702314079	4.53712627474046e-05	-0.000454032631649207
"592a"	"59200000"	"South Beach,OR"	"pacific"	44.7	-124.13	"USA"	1967	2016	2.22477791116446	1967	2016	1.73995236270054	0.714592812090377	-0.170396942521036	-0.353358296413307	0.0125644113712344	0.14752244515468	0.106766184141488	0.188278706167872	0.00871410018448253	0.000432406772871588	-0.00152512609732774
"356a"	"35600000"	"Maisaka"	"pacific"	34.68	137.62	"Japan"	1968	2016	-1.61862530612247	1968	2016	1.91828695943681	0.347657051625233	0.224917888089021	-0.0636339732267028	0.513469749404745	0.0972699967257766	0.0632951967835662	0.131244796667987	0.0216746242912279	0.000300481427757345	-0.00182270159886931
"347a"	"34700000"	"Abashiri"	"pacific"	44.02	144.28	"Japan"	1968	2016	2.02885536823427	1968	2016	2.0407308079115	0.42724972996216	-0.148729225743111	-0.311028056331421	0.0135696048451989	0.0863574344223912	0.0645355965276782	0.108179272317104	0.00685700710064448	0.000123961398866978	-0.000701349124628423
"365a"	"36500000"	"Ishigaki"	"pacific"	24.33	124.15	"Japan"	1969	2016	2.30905340859748	1969	2016	1.47916666666667	0.497102005681845	-0.119990272323136	-0.369884034146925	0.129903489500653	0.120514374866624	0.0795177516137156	0.161510998119532	0.0162560358221309	0.00043752209683643	-0.00213794458877743
"575a"	"57500000"	"Charleston,OR"	"pacific"	43.45	-124.37	"USA"	1970	2016	0.954646116821773	1970	2016	1.46806372691792	0.657981329120579	-0.236464775110316	-0.422654883494648	-0.0502746667259851	0.143292090818425	0.100978402054994	0.185605779581856	0.0090243727912473	0.000466085500415435	-0.00166808944370311
"016a"	"01600000"	"Rikitea"	"pacific"	-23.2	-134.98	"French Polynesia"	1969	2015	1.68088075329898	1969	2015	1.70220202726319	0.237207084564617	-0.468594825664792	-0.75508254638173	-0.182107104947854	0.0433004359868223	0.0283592204241036	0.058241651549541	0.0213656368459407	5.81133191612059e-05	-0.0010613572674011
"007b"	"00700000"	"Malakal-B"	"pacific"	7.45	134.58	"Republic of Belau"	1969	2015	2.60764163372858	1969	2015	1.36176162181056	0.398977069205353	-0.544316472213139	-0.82943886338429	-0.259194081041988	0.0826912977140662	0.0536244604033528	0.11175813502478	0.0211624754401155	0.00021993754734427	-0.00207551053493524
"022c"	"02200000"	"Easter-C"	"pacific"	-27.2	-109.5	"Chile"	1970	2016	0.111416903725169	1970	2016	2.21273373332557	0.276040719948319	0.112362363988451	-0.110845594821521	0.335570322798422	0.0864153554497588	0.0610393901369049	0.111791320762613	0.0129694980999722	0.000167628925784712	-0.00101652553127081
"008b"	"00800000"	"Yap-B"	"pacific"	9.58	138.23	"Fd. St. Micronesia"	1969	2015	3.0119013309845	1969	2015	1.38303914715135	0.325872417886488	0.467423991672318	0.155901711264403	0.778946272080233	0.0415679032311273	0.0258554916522639	0.0572803148099907	0.0252628326165454	6.42672196025237e-05	-0.000610603927402082
"093b"	"09300000"	"Callao-B"	"pacific"	-12.08	-77.17	"Peru"	1970	2015	-0.40042673791938	1970	2015	0.71741265400869	0.342110535307157	0.00339092343239853	-0.403133930670707	0.409915777535505	0.0622257548643383	0.0292262513313788	0.0952252583972979	0.0430207545407684	0.000283477523579191	-0.00266855002325694
"376a"	"37600000"	"Xiamen"	"pacific"	24.45	118.07	"China"	1954	1997	1.38238195912614	1954	1997	1.70454545454545	0.998788293089314	-0.106884005309982	-0.28944415673531	0.0756761461153454	0.17577406038	0.124846158893847	0.226701961866154	0.00867592507015768	0.000675173487689419	-0.00174861985454657
"574a"	"57400000"	"Sand Point,AK"	"pacific"	55.37	-160.52	"USA"	1973	2016	1.62899361022364	1973	2016	1.54545454545455	0.78315111628042	-0.224060134490961	-0.40447890750605	-0.0436413614758715	0.158640798429953	0.112066690236206	0.2052149066237	0.00847358651377881	0.000564667657598597	-0.00174998146426068
"562a"	"56200000"	"Valdez,AK"	"pacific"	61.2	-146.47	"USA"	1973	2016	-6.87174016121394	1973	2016	1.86363636363636	0.945776656343747	-0.185795842652017	-0.415826218087472	0.0442345327834381	0.154827260880851	0.106331383899232	0.20332313786247	0.0137744477014634	0.000612228373123984	-0.00241798940720066
"555a"	"55500000"	"Monterey,CA"	"pacific"	36.65	-121.93	"USA"	1973	2016	1.37209302325581	1973	2016	1.63636363636364	0.476270514070889	-0.0740078382088799	-0.294708652286476	0.146692975868716	0.0771030470239169	0.0525203304370785	0.101685763610755	0.0126797791172761	0.000157312620802642	-0.00105044762437726
"316a"	"31600000"	"Acapulco-A,Gro."	"pacific"	16.9	-100.02	"Mexico"	1952	1995	3.20767065242627	1952	1995	1.04545454545455	0.311611758114893	-0.0182544756185204	-0.248274802073657	0.211765850836616	0.086794493410203	0.054752900534246	0.11883608628616	0.0137732442418756	0.000267258799833515	-0.00122880358023027
"578a"	"57800000"	"Santa Monica, CA"	"pacific"	34.08	-118.5	"USA"	1973	2016	1.66124729353541	1973	2016	1.93181818181818	0.525730678135382	-0.0339663117171011	-0.225545156836212	0.15761253340201	0.0642452505635604	0.0458793505613773	0.0826111505657436	0.00955430101175483	8.7806819917763e-05	-0.000638174726344784
"358a"	"35800000"	"Hosojima"	"pacific"	32.42	131.68	"Japan"	1933	1975	0.520007716202038	1933	1975	1.53495702005731	0.491883117405113	0.0688309027825914	-0.187302196086141	0.324964001651324	0.105653276882985	0.0685281874816898	0.142778366284281	0.0170779298694254	0.000358788764213577	-0.00168615159802289
"564a"	"56400000"	"Willapa Bay, WA"	"pacific"	46.78	-124.1	"USA"	1972	2014	0.771965129933341	1972	2014	1.88369094613523	0.860443114404925	-0.0843724059903863	-0.311787291970106	0.143042479989334	0.198466835769457	0.136086732890872	0.260846938648043	0.0134629922587128	0.00101296861863531	-0.00286107288102282
"398a"	"39800000"	"Marsden Point"	"pacific"	-35.83	174.5	"New Zealand"	1975	2016	2.73912619887848	1975	2016	1.71422984160094	0.435408381564679	0.518841288130984	0.13297187744003	0.904710698821937	0.0475255068985851	0.0269445293915806	0.0681064844055895	0.0387600672184426	0.000110264525773905	-0.00132052202008485
"561a"	"56100000"	"Seldovia,AK"	"pacific"	59.5	-151.75	"USA"	1975	2016	-9.70759330759328	1975	2016	2.07136105860113	1.40960284629984	-0.0668928243011877	-0.256480762850259	0.122695114247883	0.146105974367437	0.104812359493953	0.187399589240921	0.00935675432719893	0.000443884135926126	-0.00147173336301476
"011b"	"01100000"	"Christmas-B"	"pacific"	2.12	-157.52	"Rep. of Kiribati"	1974	2015	1.04667358444141	1974	2015	1.07146349413299	0.295992296374962	-0.355757754641675	-0.668709476603388	-0.0428060326799626	0.0806197215006417	0.0471552132404187	0.114084229760865	0.0254952050380445	0.000291522925370362	-0.00246601159441255
"039a"	"03900000"	"Kodiak Isl.,Alaska"	"pacific"	57.87	-152.62	"USA"	1975	2016	-9.60463441200243	1975	2016	1.71422984160094	0.7561605290204	0.00935670126541015	-0.257352017867729	0.276065420398549	0.116702331402665	0.0755361288085803	0.157868533996749	0.0185173248450405	0.000441149135033802	-0.00214525290855895
"047a"	"04700000"	"Chichijima"	"pacific"	27.1	142.18	"Japan"	1975	2016	3.46317154201443	1975	2016	1.40471612020077	0.353795607884026	0.0647396047571675	-0.200261350769153	0.329740560283488	0.07507134356315	0.0474955982055857	0.102647088920714	0.0182809473451999	0.000197951290777555	-0.00128401409705089
"013b"	"01300000"	"Kanton-B"	"pacific"	-2.9	-171.73	"Rep. of Kiribati"	1972	2012	0.998787234042539	1972	2012	1.43895232371795	0.298562306952301	-0.0257345413374086	-0.265194147451382	0.213725064776565	0.0512083482214662	0.0333148685036063	0.0691018279393261	0.0149268560816951	8.33476633118274e-05	-0.000785124965401705
"015b"	"01500000"	"Papeete-B"	"pacific"	-17.6	-149.57	"French Polynesia"	1975	2015	2.11229846681019	1975	2015	1.60978297161937	0.162771713224613	0.233416335441435	-0.0479078539774003	0.51474052486027	0.0381237245827519	0.0241891929505989	0.0520582562149049	0.0206024073786281	5.05462067591257e-05	-0.000616612803118212
"576a"	"57600000"	"Humboldt Bay, CA"	"pacific"	40.77	-124.22	"USA"	1977	2016	4.36799522887883	1977	2016	1.45	0.554747702360288	-0.0830140504365101	-0.353616106428935	0.187588005555915	0.109836743564268	0.0688972056448002	0.150776281483737	0.0190618918815056	0.000436304498705189	-0.00223733267064822
"082a"	"08200000"	"Acajutla-A"	"pacific"	13.58	-89.83	"El Salvador"	1962	2001	2.87201692663479	1962	2001	1.5	0.481264378780521	-0.22381655920846	-0.512546522932805	0.0649134045158845	0.0727750431651188	0.0451607663893095	0.100389319940928	0.021701388936716	0.000198504869489453	-0.00178914958422611
"557a"	"55700000"	"Port Orford, OR"	"pacific"	42.8	-124.62	"USA"	1978	2016	0.165840719209645	1978	2016	1.61535626535627	0.625646731153581	-0.0572741224113443	-0.269852417034029	0.15530417221134	0.103815522751553	0.0700308179320578	0.137600227571048	0.0117636381005181	0.000297128339263093	-0.00130989927683643
"024a"	"02400000"	"Penrhyn"	"pacific"	-9.07	-158.08	"Cook Islands"	1977	2015	1.22703599173673	1977	2015	1.43597304128054	0.196052478740484	0.0927991735496107	-0.220888660633738	0.406487007732959	0.0490709705580933	0.0290761049737308	0.0690658361424558	0.0256152836481168	0.000104073652327863	-0.00116671750917871
"030a"	"03000000"	"Santa Cruz"	"pacific"	-0.8	-90.43	"Ecuador"	1978	2015	0.607809873867091	1978	2015	1.26320340082138	0.470843714741475	-0.354512405782429	-0.612517549407061	-0.0965072621577964	0.0947570857613675	0.059742616701931	0.129771554820804	0.0173284830695489	0.000319152983473269	-0.00209576467961003
"029a"	"02900000"	"Kapingamarangi"	"pacific"	1.23	154.87	"Fd. St. Micronesia"	1978	2015	2.55843527237529	1978	2015	1.68427120109518	0.350535167121237	-0.141299377548526	-0.379354922261066	0.0967561671640141	0.0646426847908623	0.0426921525772746	0.0865932170044499	0.0147523232744544	0.000125427835348418	-0.0010754966219794
"028b"	"02800000"	"Saipan-B"	"pacific"	15.32	145.82	"N. Mariana Islands"	1978	2015	3.05239922861681	1978	2015	1.05266950068449	0.231281274211309	0.539355583584923	0.0622078089005079	1.01650335826934	0.0450308929034519	0.0205657557371943	0.0694960300697094	0.0592665467764016	0.000155811363469372	-0.00173214582594544
"340a"	"34000000"	"Kaohsiung"	"pacific"	22.75	120.33	"Republic of China"	1980	2016	0.114060459040856	1980	2016	1.54045504994451	0.384340313123549	0.03285207001035	-0.272087503909631	0.337791643930331	0.0662070824015464	0.0397160159927664	0.0926981488103265	0.0242064663667791	0.000182684920555152	-0.00156218963163445
"684a"	"68400000"	"Puerto Montt"	"pacific"	-41.5	-73.07	"Chile"	1980	2016	-3.74678509966528	1980	2016	2.35122086570477	1.33207238541201	-0.238942561625359	-0.393659681479877	-0.0842254417708408	0.118075157655462	0.0878447252317563	0.148305590079167	0.0062313272882493	0.000237898956407161	-0.000982785901836115
"341a"	"34100000"	"Keelung"	"pacific"	25.2	121.77	"Republic of China"	1980	2016	2.82912665608449	1980	2016	1.62153163152053	0.329601977899817	0.0947853738484169	-0.19186223760577	0.381432985302604	0.106994035479095	0.0661749884244859	0.147813082533703	0.0213894921142337	0.000433740066005782	-0.00210299575612514
"054a"	"05400000"	"Chuuk"	"pacific"	7.45	151.85	"Fd. St. Micronesia"	1956	1991	1.58475881822645	1956	1991	1.52777777777778	0.284245575196159	0.28502345221404	-0.0273310025031334	0.597377906931214	0.0278846144090729	0.0167042509575634	0.0390649778605825	0.0253979828850628	3.25398586168532e-05	-0.000520743597709726
"317a"	"31700000"	"Ensenada"	"pacific"	31.85	-116.63	"Mexico"	1956	1991	1.78485247340135	1956	1991	1.75	0.51190209969238	-0.337861559983844	-0.531689604960015	-0.144033515007673	0.0757771646833962	0.052837993250259	0.0987163361165334	0.00977995932610207	0.000136980665575318	-0.00101283107870863
"084a"	"08400000"	"Lobos de Afuera"	"pacific"	-6.93	-80.72	"Peru"	1982	2016	-0.242541776923938	1982	2016	1.05712218397997	0.415180597975052	-0.426086437609404	-0.735338833489278	-0.11683404172953	0.129765714760055	0.0746129369200089	0.184918492600101	0.0248960222721225	0.000791842121822832	-0.00409146003551277
"041b"	"04100000"	"Dutch Harbor-B,AK"	"pacific"	54	-166.57	"USA"	1982	2016	-2.44250755509693	1982	2016	1.62853958072591	0.527807521595393	-0.301051399211083	-0.564838169970846	-0.03726462845132	0.10089425928573	0.064405631211482	0.137382887359979	0.0181138113606774	0.000346592281965486	-0.00220009046198875
"014a"	"01400000"	"French Frigate-A"	"pacific"	23.88	-166.33	"USA"	1974	2007	1.87326410037761	1974	2007	1.32358270252859	0.246218228677585	-0.334311281127819	-0.633866493858119	-0.0347560683975197	0.0759991560796727	0.0450954108288958	0.10690290133045	0.0233591793280452	0.000248614267418425	-0.00215114004570244
"087a"	"08700000"	"Quepos-A"	"pacific"	9.4	-84.17	"Costa Rica"	1961	1994	0.406358016904253	1961	1994	1.70595103881462	0.568170061686467	-0.499049802088259	-0.770124122661295	-0.227975481515224	0.117243992940206	0.0760763099828821	0.15841167589753	0.0191284849594861	0.000441180863620061	-0.00275199043925038
"397a"	"39700000"	"Guaymas"	"pacific"	27.93	-110.9	"Mexico"	1953	1986	4.80539971949512	1953	1986	1.47064744725399	0.359376764803924	-0.117180370529032	-0.35651103981128	0.122150298753216	0.0686896646138577	0.0436516018697937	0.0937277273579217	0.0149107857021721	0.000163194404843941	-0.00116571687908206
"348a"	"34800000"	"Hamada"	"pacific"	34.9	132.07	"Japan"	1984	2016	5.08622994652412	1984	2016	2.06047784967646	0.367039874419968	0.051176698272747	-0.237264104387233	0.339617500932727	0.0791474489942804	0.0495946446518164	0.108700253336744	0.0216579431207075	0.000227353275219059	-0.00165082886327679
"073a"	"07300000"	"Tauranga"	"pacific"	-37.65	176.18	"New Zealand"	1984	2016	4.2494981697957	1984	2016	1.78776754604281	0.321338529027499	-0.282785317517635	-0.524883445001898	-0.0406871900333723	0.0896322534557983	0.058787813706035	0.120476693205562	0.0152576159389353	0.000247660981903972	-0.00167568099911566
"328a"	"32800000"	"Ko Lak"	"pacific"	11.9	99.82	"Thailand"	1985	2017	5.46271531100478	1985	2017	1.90913050692774	0.679166191757523	-0.196861194180278	-0.390117637906997	-0.00360475045355871	0.106409045893516	0.0734459009203284	0.139372190866704	0.00972236194247427	0.000282853201671716	-0.00130229360202275
"332a"	"33200000"	"Bundaberg"	"pacific"	-24.77	152.5	"Australia"	1984	2016	3.49298128342249	1984	2016	1.60596067695371	0.66908439538503	0.130158720177868	-0.0778994091610922	0.338216849516828	0.0711538986153945	0.0470848477225116	0.0952229495082775	0.0112686839048832	0.000150807086038088	-0.000604003791638848
"322a"	"32200000"	"Kuantan"	"pacific"	4.05	103.55	"Malaysia"	1983	2015	3.04178885630488	1983	2015	1.66670123620675	0.718592428082409	-0.11974147591595	-0.352053592325788	0.112570640493889	0.100509816481684	0.0652977355722368	0.135721897391131	0.014049068843348	0.000322765568979702	-0.00160432046280728
"334a"	"33400000"	"Townsville"	"pacific"	-19.25	146.83	"Australia"	1984	2016	3.29913101604281	1984	2016	1.39385266301643	0.875246583201643	-0.22762033338764	-0.530895451336765	0.0756547845614838	0.152351263384826	0.089326941777544	0.215375584992109	0.0239429345621453	0.00103399913924899	-0.00423003044036413
"331a"	"33100000"	"Brisbane"	"pacific"	-27.37	153.17	"Australia"	1984	2016	3.29445187165784	1984	2016	1.96957441513191	0.480986209254827	-0.108098820695511	-0.326495477950673	0.110297836559651	0.0655969359259224	0.0442455703884748	0.08694830146337	0.0124164027590982	0.000118673876668377	-0.000911234900352764
"371a"	"37100000"	"Legaspi"	"pacific"	13.25	123.83	"Philippines"	1984	2015	7.70153846153857	1984	2015	2.03125	0.373437976832373	0.0488599480789578	-0.171669861088581	0.269389757246497	0.0410811956204105	0.0276288744653497	0.0545335167754712	0.0126601374637887	4.71083910841443e-05	-0.000486838970424095
"010a"	"01000000"	"Rabaul"	"pacific"	-4.2	152.25	"Papua New Guinea"	1966	1997	-1.69962748425094	1966	1997	1.125	0.273513721377229	-0.816812107777914	-0.851118819340012	-0.782505396215817	0.085025502022026	0.0850254628227465	0.0850255412213055	0.000306381120595296	3.99999996705648e-16	-8.86966534209376e-16
"021b"	"02100000"	"Juan Fernandez-B"	"pacific"	-33.67	-78.95	"Chile"	1985	2016	-0.765478503251968	1985	2016	2.03125	0.367631545811317	0.0483400719036996	-0.267853814686249	0.364533958493648	0.0496312205404975	0.0298674789693177	0.0693949621116772	0.0260261995724821	0.000101681548371199	-0.00125153605077808
"345a"	"34500000"	"Nakano Shima"	"pacific"	29.92	129.92	"Japan"	1984	2015	3.5219941348973	1984	2015	1.78125	0.502742769201379	0.117457873505717	-0.170397743966188	0.405313490977622	0.0682246843906598	0.0418759200690885	0.0945734487122311	0.0215701535218225	0.000180727534428772	-0.00131371799354067
"394a"	"39400000"	"Salina Cruz"	"pacific"	16.25	-95.23	"Mexico"	1952	1983	0.0308598305959772	1952	1983	1.46875	0.383475074853588	0.0253508490952902	-0.33233477232693	0.38303647051751	0.0532845527261329	0.0289135400641066	0.0776555653881591	0.0333047963661581	0.000154614766393701	-0.00174336384823804
"005a"	"00500000"	"Majuro-A"	"pacific"	7.17	171.43	"Rep. of Marshall I"	1968	1999	2.45443046401705	1968	1999	1.90625	0.471979378611633	-0.455975401577114	-0.747245106806299	-0.16470569634793	0.077209676586572	0.0488696979995675	0.105549655173577	0.0220848498302961	0.000209075360117163	-0.00202193535697282
"573a"	"57300000"	"Arena Cove, CA"	"pacific"	39.03	-123.78	"USA"	1985	2016	0.370763073769503	1985	2016	1.53125	0.514807676235916	-0.422969675038378	-0.783663895820717	-0.0622754542560381	0.169839380338724	0.0949482921254165	0.244730468552031	0.0338674256261507	0.00146003780219097	-0.00659831887449529
"320a"	"32000000"	"Cendering"	"pacific"	5.4	103.22	"Malaysia"	1984	2015	3.17211522358064	1984	2015	1.5625	0.652101602802009	-0.0946470774555359	-0.408078483249798	0.218784328338726	0.102708359695833	0.0598344199981148	0.145582299393551	0.0255734216410046	0.000478509543119726	-0.00280158803524251
"375a"	"37500000"	"Hachinohe"	"pacific"	40.53	141.53	"Japan"	1980	2011	4.06653225806454	1980	2011	2.375	0.321013561638148	-0.000722327063378503	-0.246661460935188	0.245216806808431	0.0580150461186986	0.0387104184756307	0.0773196737617665	0.0157455957210252	9.7012272116498e-05	-0.000912361827829712
"335a"	"33500000"	"Spring Bay"	"pacific"	-42.67	148.07	"Australia"	1985	2016	2.80387783115987	1985	2016	2	0.380104358924632	-0.150320206635392	-0.430241747220913	0.129601333950129	0.0770782730262004	0.0485495294260347	0.105607016626366	0.0203974772452756	0.000211869825863949	-0.00172643152315313
"370a"	"37000000"	"Manila"	"pacific"	14.6	120.98	"Philippines"	1984	2015	12.9525406935599	1984	2015	1.625	0.489265875620268	-0.0931890373216964	-0.395667687698682	0.209289613055289	0.08155903784795	0.0484733347123092	0.114644740983591	0.0238173408083938	0.000284960428596225	-0.00207414294862678
"362a"	"36200000"	"Nagasaki"	"pacific"	32.73	129.87	"Japan"	1985	2016	3.86418621700875	1985	2016	1.59375	0.655295769153306	-0.0984701328704976	-0.303258890505215	0.10631862476422	0.0715592883506169	0.0471562187250467	0.0959623579761872	0.0109173200107331	0.000155021785979428	-0.000904577572844762
"003b"	"00300000"	"Baltra-B"	"pacific"	-0.47	-90.3	"Ecuador"	1985	2015	1.34620154202835	1985	2015	1.19362745098039	0.501003847543913	-0.347159385016915	-0.684584427126505	-0.00973434290732611	0.125475703403641	0.068652906975491	0.182298499831792	0.0296386514491089	0.000840521881041951	-0.00448769313867735
"325a"	"32500000"	"Kukup"	"pacific"	1.4	103.53	"Malaysia"	1985	2015	3.55016685205781	1985	2015	1.74205087440382	0.626783425453349	-0.31838482827573	-0.551974977210779	-0.0847946793406814	0.0827842067642234	0.0542962720793051	0.111272141449142	0.0142040720013859	0.000211264121390615	-0.0015094061149454
"321a"	"32100000"	"Johor Baharu"	"pacific"	1.57	103.87	"Malaysia"	1983	2013	3.18775749455705	1983	2013	2.09672789896671	0.611450394929788	-0.125727385322843	-0.279138881157655	0.027684110511969	0.0780396525428009	0.0557449686399224	0.100334336445679	0.00612660141701634	0.000129391711203988	-0.000609980289492265
"329b"	"32900000"	"Hong Kong-B"	"pacific"	22.3	114.22	"China"	1986	2016	2.94354838709679	1986	2016	2.41930142188466	0.620735542063147	0.214237670068766	-0.10287500284808	0.531350342985611	0.0915544994286553	0.0561734216523815	0.126935577204929	0.0261776715613199	0.000325871165888104	-0.00207848476005584
"001b"	"00100000"	"Pohnpei-B"	"pacific"	7.02	158.33	"Fd. St. Micronesia"	1974	2004	2.85524215007982	1974	2004	1.54835291000618	0.375132620440613	-0.0560041811981748	-0.289696088108501	0.177687725712151	0.0543353748606397	0.0344438543222488	0.0742268953990306	0.0142164500270542	0.000103000606748072	-0.000830926560018624
"323a"	"32300000"	"Tioman"	"pacific"	2.87	104.2	"Malaysia"	1985	2015	2.94568592924603	1985	2015	1.61301006889242	0.693673001633221	-0.0381396939586375	-0.367050743909028	0.290771355991753	0.0826570499640089	0.0471419016547407	0.118172198273277	0.0281618218049571	0.000328345510990381	-0.00238604733146906
"326a"	"32600000"	"Geting"	"pacific"	6.32	102.17	"Malaysia"	1986	2015	3.19408866995072	1986	2015	1.60007301268595	0.567231022725454	0.023990518551665	-0.276651566704888	0.324632603808218	0.0889303525452627	0.0522368818005439	0.125623823289982	0.0235289944904515	0.000350494657925358	-0.0020461824178052
"395a"	"39500000"	"Manzanillo-A"	"pacific"	19.08	-104.45	"Mexico"	1953	1982	2.59806489160483	1953	1982	1.40006388610021	0.352344930126451	-0.181640449740678	-0.489639260522966	0.12635836104161	0.0815340655597282	0.0466433535546102	0.116424777564846	0.0246945943900975	0.000316900906933089	-0.00230123701310442
"035a"	"03500000"	"San Felix"	"pacific"	-26.37	-80.18	"Chile"	1987	2016	0.367224622030253	1987	2016	1.23327705785727	0.336652311070496	-0.312970397148351	-0.674217756833619	0.0482769625369169	0.0808018339036052	0.0425665637392112	0.119037104067999	0.0339713793563449	0.000380567891726102	-0.00321407099938405
"324a"	"32400000"	"Sedili"	"pacific"	2.07	104.25	"Malaysia"	1986	2015	2.28128078817732	1986	2015	1.566738158255	0.598183718475079	0.205684808872762	-0.238357485836543	0.649727103582067	0.0670757805542802	0.0318914706969134	0.102260090411647	0.0513277816303853	0.000322256652465042	-0.00308715167164678
"034a"	"03400000"	"Cabo San Lucas"	"pacific"	23	-109.98	"Mexico"	1973	2002	-0.0392738275340385	1973	2002	1.46673359496212	0.4535421208031	-0.492471233510719	-0.777123125609213	-0.207819341412225	0.0907766510348572	0.0559489490722658	0.125604352997449	0.0210926899017524	0.000315757341315432	-0.00243631836213081
