"UHAWAII_ID"	"PSMSL_ID"	"Site"	"Basin"	"Lat"	"Lon"	"Region"	"GPD_Record_Start"	"GPD_Record_End"	"Annual_Trend"	"Trend_Start"	"Trend_End"	"Lambda"	"Q99"	"Shape50"	"Shape5"	"Shape95"	"Scale50"	"Scale5"	"Scale95"	"Vshape"	"Vscale"	"Vscaleshape"
"822a"	"82200000"	"Brest"	"atlantic"	48.38	-4.6	"France"	1846	2016	1.24383408682876	1846	2016	2.00587203996349	1.33782364983535	-0.315113559832015	-0.413282144238414	-0.216944975425615	0.185850687517304	0.159750124933724	0.211951250100883	0.00250870083845257	0.000177338714008724	-0.000583252005680124
"826a"	"82600000"	"Stockholm"	"atlantic"	59.4	18.22	"Sweden"	1889	2014	-3.79339308797268	1889	2014	1.16670469361147	0.509333280700268	-0.0498142139416572	-0.199161290595385	0.0995328627120707	0.108676439791859	0.0847806460374919	0.132572233546225	0.00580627057222605	0.000148643779825304	-0.000665845587560095
"838a"	"83800000"	"Hornbaek"	"atlantic"	56.1	12.47	"Denmark"	1891	2012	0.420461577960136	1891	2012	2.44265035906643	0.704551710180172	-0.166209485142846	-0.263033293424003	-0.0693856768616885	0.219420956468031	0.186944404220483	0.251897508715579	0.00244044002230702	0.000274564038069561	-0.000637511640952881
"837a"	"83700000"	"Gedser"	"atlantic"	54.57	11.93	"Denmark"	1891	2012	1.1932362856884	1891	2012	2.38527266606822	0.656191074470143	-0.0342706823010674	-0.113567055939527	0.0450256913373918	0.211126632238399	0.181666241527548	0.24058702294925	0.00163685598771405	0.000225933600058523	-0.000369585741465395
"275a"	"27500000"	"Halifax"	"atlantic"	44.67	-63.58	"Canada"	1899	2014	3.16492828361295	1899	2014	2.62937240370091	0.484169944254277	0.0677233992332131	-0.065598592413043	0.201045390879469	0.0973954378537113	0.0804434523589486	0.114347423348474	0.00462708421102185	7.48074691485868e-05	-0.000427440884659439
"775a"	"77500000"	"Galveston,Pier 21"	"atlantic"	29.4	-94.88	"USA"	1904	2016	6.44305065482934	1904	2016	2.08845762465475	0.40722671763652	0.235236044687429	0.0961185184869223	0.374353570887935	0.126974367098246	0.103314789066086	0.150633945130405	0.00503810843731797	0.000145719545305108	-0.000483299425012021
"266a"	"26600000"	"Cristobal"	"atlantic"	9.4	-80.05	"Panama"	1907	2014	1.47821065883667	1907	2014	1.49074074074074	0.206631648098279	-0.0566978007932884	-0.222400920284899	0.109005318698322	0.0317412628249467	0.0245787237817949	0.0389038018680984	0.00714768141241966	1.33548133506747e-05	-0.000236720258033918
"252a"	"25200000"	"Portland,ME"	"atlantic"	43.72	-70.37	"USA"	1910	2016	1.82959016373136	1910	2016	2.38316232536718	0.609390581682868	-0.038726840940672	-0.162247701409906	0.0847940195285619	0.108263488444861	0.0894232176201775	0.127103759269544	0.00397177314224158	9.24013041179168e-05	-0.000445697165323371
"264a"	"26400000"	"Atlantic City,NJ"	"atlantic"	39.4	-74.43	"USA"	1911	2016	4.08790027382042	1911	2016	2.55657075703179	0.528403153492942	0.047685708121692	-0.0739034991717364	0.16927491541512	0.118377027199049	0.0982475473823784	0.138506507015719	0.00384852110104696	0.000105479708778064	-0.000433668456565168
"242a"	"24200000"	"Key West,FL"	"atlantic"	24.58	-81.88	"USA"	1913	2016	2.44431013721777	1913	2016	1.53846153846154	0.263091685263188	0.178266190118484	0.00839011221221256	0.348142268024756	0.0456570817216091	0.0352478644134931	0.0560662990297252	0.00751221949571839	2.82059004209251e-05	-0.000282673058859759
"824a"	"82400000"	"Marseille"	"atlantic"	43.38	5.38	"France"	1885	1988	1.2775686656083	1885	1988	2.02889956561801	0.356314923756178	-0.136444803797505	-0.267841727674709	-0.00504787992030206	0.132865073343551	0.107965945065699	0.157764201621403	0.00449442579245764	0.000161388320930877	-0.000671256437823878
"294a"	"29400000"	"Newlyn, Cornwall"	"atlantic"	50.12	-5.62	"United Kingdom"	1915	2016	1.85965935393283	1915	2016	2.07840347863431	0.965447718424181	-0.285423858859999	-0.391391897175729	-0.179455820544269	0.138286543002459	0.11520120351725	0.161371882487668	0.00292316686671003	0.00013873190473276	-0.000537418144830854
"825a"	"82500000"	"Cuxhaven"	"atlantic"	53.87	8.72	"Germany"	1917	2016	1.97213358070501	1917	2016	2.64	1.28420118845002	0.273927454768399	0.158644001643624	0.389210907893174	0.359471426831846	0.300679609525816	0.418263244137876	0.00345969465890844	0.000899782593926389	-0.000768508680257364
"745a"	"74500000"	"New York,NY"	"atlantic"	40.7	-74.15	"USA"	1920	2016	3.20351195140459	1920	2016	2.61850127011008	0.510526368309117	0.176325399542674	0.043208512906089	0.309442286179258	0.129036013509433	0.10582233600775	0.152249691011116	0.00461285837879044	0.000140278693148861	-0.000489779630702262
"261b"	"26100000"	"Charleston,SC-B"	"atlantic"	32.92	-80	"USA"	1921	2016	3.2656914893617	1921	2016	2.13541666666667	0.474798450817269	0.219280279885658	0.064330460211112	0.374230099560203	0.0703921230894663	0.0559993484495716	0.084784897729361	0.00625008564138035	5.39253370929963e-05	-0.000347963078867593
"741a"	"74100000"	"Boston,MA"	"atlantic"	42.4	-71.07	"USA"	1921	2016	2.80653931153762	1921	2016	2.4375	0.639117257126742	0.058067818952885	-0.0851442906692707	0.201279928575041	0.11509732922944	0.09300117110836	0.13719348735052	0.00533904157242076	0.000127097601848965	-0.00058416660237021
"762a"	"76200000"	"Pensacola,FL"	"atlantic"	30.43	-87.33	"USA"	1923	2016	2.34598639285801	1923	2016	2.35102959165841	0.329414404797057	0.452543796617244	0.261979457505779	0.64310813572871	0.070656962661981	0.0548426956093592	0.0864712297146028	0.00945337931135959	6.5103142864473e-05	-0.000457565184072767
"740a"	"74000000"	"Eastport,ME"	"atlantic"	44.93	-67	"USA"	1929	2016	2.12033842200241	1929	2016	2.31818181818182	0.970781631600748	-0.0149919701091042	-0.150263011204857	0.120279070986649	0.0990749928203174	0.0799911874192414	0.118158798221393	0.00476336085149612	9.48055531987535e-05	-0.000478964341549601
"253a"	"25300000"	"Newport,RI"	"atlantic"	41.55	-71.42	"USA"	1930	2016	2.71755183726813	1930	2016	2.6666456871322	0.464154706290528	0.041535339360037	-0.0906318731090797	0.173702551829154	0.110862105575782	0.0904254810137096	0.131298730137854	0.00454727562293646	0.000108723181214688	-0.000483339330013789
"752a"	"75200000"	"Fort Pulaski,GA"	"atlantic"	32.03	-80.92	"USA"	1935	2016	3.19405718410312	1935	2016	2.13411071416647	0.515953423773901	0.140292475531213	-0.000828374808058502	0.281413325870484	0.0703953176394827	0.0560738308868409	0.0847168043921245	0.00518425299607415	5.33924720736778e-05	-0.000300428233697844
"804a"	"80400000"	"Tregde"	"atlantic"	58	7.57	"Norway"	1927	2008	-0.427982221372579	1927	2008	2.36581416313312	0.469835891226747	-0.0113703527760569	-0.17057713090842	0.147836425356306	0.0956056274232185	0.075298296459642	0.115912958386795	0.00659822202615915	0.000107351844732184	-0.000636183200621041
"750a"	"75000000"	"Wilmington,NC"	"atlantic"	34.32	-77.98	"USA"	1935	2016	2.23616108748591	1935	2016	1.86582251009983	0.3146517514716	0.240804304441369	0.0483086829165293	0.433299925966209	0.0657816242364642	0.0495829350454269	0.0819803134275014	0.00964596160880853	6.83067406825442e-05	-0.0005057537282461
"744a"	"74400000"	"New London,CT"	"atlantic"	41.4	-72.12	"USA"	1938	2016	2.54478986927149	1938	2016	2.89870906255415	0.419949435816337	0.0992720160208894	-0.0386019158591116	0.23714594790089	0.155228083184601	0.125934996692745	0.184521169676456	0.00494843807504784	0.000223374753256954	-0.000694095471772248
"769a"	"76900000"	"Rockport, TX"	"atlantic"	28.07	-97.17	"USA"	1944	2016	5.39771923205512	1944	2016	1.30133325832583	0.327244442855122	0.265942953097239	0.0173735421126777	0.514512364081801	0.0795019805133175	0.0544507910723842	0.104553169954251	0.0160841896168101	0.000163365565452588	-0.000996567143453776
"753a"	"75300000"	"Mayport,FL"	"atlantic"	30.5	-81.57	"USA"	1928	2000	2.44165219628273	1928	2000	1.86296129612961	0.414978525068162	0.0422989301488878	-0.12459987368447	0.209197733982246	0.0618648380291103	0.0472291432213662	0.0765005328368543	0.00725120638309288	5.57609940659788e-05	-0.000428216753551985
"830a"	"83000000"	"La Coruna"	"atlantic"	43.37	-8.4	"Spain"	1943	2013	1.75958760500617	1943	2013	2.01406509081094	0.82093625191737	-0.247769000149741	-0.377385811957018	-0.118152188342463	0.116534498349971	0.0926536789502648	0.140415317749677	0.00437347338271023	0.00014845754225691	-0.000661591103826916
"759a"	"75900000"	"St. Petersburg, FL"	"atlantic"	27.85	-82.72	"USA"	1946	2016	2.68929189163854	1946	2016	2.67603054023831	0.328676598789542	0.259124299652883	0.0692550660199742	0.448993533285791	0.0874165005812998	0.0669385038581156	0.107894497304484	0.00938454049959955	0.00010916382795403	-0.000670022663439442
"279a"	"27900000"	"Montauk,NY"	"atlantic"	41.18	-72.05	"USA"	1947	2016	3.17816186124041	1947	2016	2.84280154881101	0.428984998699922	0.0789454327183441	-0.0629386894368275	0.220829554873516	0.148904957270475	0.119383680235094	0.178426234305856	0.0052404841648429	0.000226868447243241	-0.000716515744655462
"207a"	"20700000"	"Ceuta"	"atlantic"	35.9	-5.32	"Spain"	1944	2013	0.629893871798707	1944	2013	1.7142521902378	0.295780499823322	-0.136149897411842	-0.289966446450915	0.017666651627231	0.0638572439278612	0.0488825130289769	0.0788319748267454	0.00615899632473854	5.83743249533205e-05	-0.000455655174987678
"246a"	"24600000"	"Magueyes Island,PR"	"atlantic"	18.02	-67.17	"USA"	1954	2016	1.84078858732264	1954	2016	1.65077571596193	0.143417930927243	0.351418430134924	0.118493977756552	0.584342882513295	0.0226718927416896	0.0160282479249334	0.0293155375584458	0.0141232284525598	1.14899100866156e-05	-0.000215576292795344
"742a"	"74200000"	"Woods Hole,MA"	"atlantic"	41.58	-70.72	"USA"	1957	2016	2.81832852444608	1957	2016	2.81666666666667	0.414087736873758	0.0103096186998225	-0.138475589191839	0.159094826591484	0.148289048612801	0.116883272852886	0.179694824372716	0.005762664425325	0.000256757340666699	-0.000845304404044482
"747a"	"74700000"	"Lewes,DE"	"atlantic"	38.92	-75.15	"USA"	1957	2016	3.70547377646752	1957	2016	2.56666666666667	0.538286589119786	0.161448115176805	-0.0477270493918222	0.370623279745433	0.124356512652293	0.0919219591320261	0.156791066172561	0.0113900087218444	0.000273854363970247	-0.00126478925043065
"293a"	"29300000"	"Lerwick"	"atlantic"	60.2	-1.2	"United Kingdom"	1959	2016	0.21662930083084	1959	2016	1.93098890724569	0.550555618835523	-0.210379718094533	-0.39096861823272	-0.0297908179563453	0.123983516772223	0.0922851207693648	0.155681912775081	0.00848957450160234	0.000261564253595838	-0.00123633412769608
"285a"	"28500000"	"Buenos Aires"	"atlantic"	-34.67	-58.5	"Argentina"	1905	1961	1.37315270935961	1905	1961	2.92985974350353	1.28693378345396	0.125976987885247	-0.0407530836659743	0.292707059436468	0.205430538747631	0.159297369755028	0.251563707740234	0.00723655206447124	0.000554026316730243	-0.00131204861955259
"274a"	"27400000"	"Churchill"	"atlantic"	58.77	-94.18	"Canada"	1961	2016	-10.3825442231375	1961	2016	2.125	0.810588249405044	-0.0332510925781415	-0.232215695495323	0.16571351033904	0.162347759640417	0.118840781734393	0.205854737546441	0.010305177033458	0.000492744349182754	-0.001716705549664
"767a"	"76700000"	"Galveston,P.Pier"	"atlantic"	29.32	-94.85	"USA"	1957	2011	6.05408663269304	1957	2011	2.09098715651135	0.503094733056355	0.386760212552239	0.14234640518311	0.631174019921368	0.10997472983613	0.0773298530453644	0.142619606626896	0.0155508914766603	0.000277417520381419	-0.00119706213877611
"281a"	"28100000"	"Cananeia-A"	"atlantic"	-25.02	-48	"Brazil"	1954	2006	4.22978741569198	1954	2006	2.79248889348073	0.586889475749322	0.14097921733644	0.0108347514727411	0.271123683200138	0.0879846467948986	0.0698773493268057	0.106091944262991	0.00440915360167441	8.53514867403314e-05	-0.000292264304469109
"743a"	"74300000"	"Nantucket,MA"	"atlantic"	41.3	-70.22	"USA"	1965	2016	3.6232807624011	1965	2016	2.59615384615385	0.40423875965548	0.35096226042278	0.155240149394946	0.546684371450614	0.091580639936042	0.0685547205784421	0.114606559293642	0.00997203055746152	0.000138018650468545	-0.000591305317853974
"746a"	"74600000"	"Cape May,NJ"	"atlantic"	38.98	-75.05	"USA"	1965	2016	4.80499341699986	1965	2016	2.5	0.485845512055511	-0.0768350384255209	-0.280725048916996	0.127054972065954	0.142197816983844	0.104328501668078	0.180067132299609	0.010821705585979	0.000373317822583283	-0.00161615644406812
"757a"	"75700000"	"Naples,FL"	"atlantic"	26.25	-81.87	"USA"	1965	2016	2.69162469051482	1965	2016	2.36538461538462	0.326030520628271	0.218054863239868	-0.0117551894664485	0.447864915946185	0.0786734515789913	0.0560771034801467	0.101269799677836	0.0137480740494668	0.000132916938912259	-0.000911331005431621
"280a"	"28000000"	"Ilha Fiscal,RJ"	"atlantic"	-23.02	-43.3	"Brazil"	1963	2013	2.22538168699105	1963	2013	2.03918831866008	0.531138815480418	-0.0153997001015097	-0.141633800246057	0.110834400043037	0.101647184986161	0.0782848557204998	0.125009514251823	0.00414817619636077	0.000142081030721181	-0.000436266353013486
"819a"	"81900000"	"Goteborg-Torsh."	"atlantic"	57.7	11.85	"Sweden"	1967	2014	0.377081406105446	1967	2014	2.20833333333333	0.65507260950459	-0.0801661890610736	-0.281135752079775	0.120803373957627	0.170556328676184	0.123419852183608	0.217692805168761	0.0105139133712306	0.000578386368263539	-0.00191168605669585
"208a"	"20800000"	"Vigo"	"atlantic"	42.23	-8.73	"Spain"	1943	1990	2.4688992618324	1943	1990	2	0.811774784104809	0.0286472040383374	-0.19682960790339	0.254124015980065	0.091853199985381	0.0641810319067509	0.119525368064011	0.0132345015517357	0.000199338043674145	-0.00118703331132828
"209a"	"20900000"	"Cascais"	"atlantic"	38.77	-9.42	"Portugal"	1959	2005	0.484373977889701	1959	2005	1.78720801537834	0.682332009543986	-0.256642080485836	-0.47451717908452	-0.0387669818871521	0.121789803543277	0.0852223131019255	0.158357293984628	0.0123571697121066	0.000348092071161835	-0.0017814703634527
"803a"	"80300000"	"Rorvik"	"atlantic"	64.87	11.25	"Norway"	1969	2014	-0.738962909614687	1969	2014	2.19571751681448	0.707654787022611	0.10718356013171	-0.096470376919115	0.310837497182535	0.125192592343787	0.0899945093122535	0.160390675375321	0.0107966603345776	0.000322509001637787	-0.00120436202805007
"834a"	"83400000"	"Malin Head"	"atlantic"	55.37	-7.33	"Ireland"	1958	2001	-1.26180799968889	1958	2001	2.20454545454545	0.911843423696344	-0.0830264544725813	-0.245563739316159	0.0795108303709967	0.132501978160605	0.0985323882068539	0.166471568114356	0.00687717093881246	0.000300389278002853	-0.00101511017963632
"265a"	"26500000"	"Cartagena"	"atlantic"	10.38	-75.53	"Colombia"	1951	1993	5.32340765829334	1951	1993	1.44183751432574	0.173466215354999	-0.127038114834269	-0.331353084537083	0.0772768548685453	0.0334784919796002	0.0227807918176265	0.0441761921415738	0.0108668630312478	2.97909711120665e-05	-0.000422864610165206
"749a"	"74900000"	"Chesapeake BBT"	"atlantic"	36.97	-76.23	"USA"	1975	2016	5.83040272263191	1975	2016	2.28563978880125	0.541184753388756	-0.0307776585580399	-0.248684421778578	0.187129104662498	0.173025080037216	0.121859943388621	0.22419021668581	0.0123607618026403	0.000681478399343171	-0.00219229954227295
"760a"	"76000000"	"Apalachicola,FL"	"atlantic"	29.82	-85.12	"USA"	1976	2016	2.57282229965158	1976	2016	2.39012419871795	0.384811659525641	0.53233470301064	0.192687101181264	0.871982304840016	0.102197765774799	0.0634980374769102	0.140897494072688	0.0300303865830851	0.000389869848991333	-0.00221789008602133
"295a"	"29500000"	"Stornoway"	"atlantic"	58.28	-6.43	"United Kingdom"	1976	2016	2.60810156096236	1976	2016	1.97551081730769	1.0371202862271	-0.419670587105038	-0.67297737075588	-0.166363803454195	0.211432885260984	0.143500728372953	0.279365042149015	0.0167031145297923	0.0012013087097537	-0.00416765422814042
"221a"	"22100000"	"Simon's Town"	"atlantic"	-34.18	18.43	"South Africa"	1959	1999	2.1604024808251	1959	1999	2.02442404006678	0.455855365370427	-0.112749809251197	-0.312362722700963	0.0868631041985685	0.0656241743772137	0.0464457162040342	0.0848026325503931	0.0103724436667797	9.57483276714995e-05	-0.000759304914749041
"772a"	"77200000"	"Port Isabel,TX"	"atlantic"	26.15	-97.35	"USA"	1977	2016	5.43608148648442	1977	2016	1.525	0.322964964914104	0.378445389292463	-0.0153217742682916	0.772212552853218	0.0662407993518914	0.0359726773725473	0.0965089213312356	0.040362941875989	0.000238492523522851	-0.00210599976249805
"701a"	"70100000"	"Port Nolloth"	"atlantic"	-29.25	16.87	"South Africa"	1958	1997	1.87427531933405	1958	1997	2.025	0.468497703128151	-0.341987320700885	-0.495588737756869	-0.188385903644902	0.090238650607987	0.0671260444811302	0.113351256734844	0.00614178009523553	0.00013905981735311	-0.000807937338279352
"245a"	"24500000"	"San Juan,PR"	"atlantic"	18.55	-66.12	"USA"	1977	2016	2.40887285928125	1977	2016	1.575	0.204317774619449	0.279442669391007	0.0169705564288545	0.541914782353159	0.0293534195742289	0.0189991321780149	0.0397077069704428	0.0179337104205554	2.79089982445843e-05	-0.000358729556502367
"255a"	"25500000"	"Charlotte Amalie"	"atlantic"	18.35	-64.95	"USA"	1978	2016	2.18239870816201	1978	2016	1.94868374868375	0.163049942659671	0.375270401484567	0.107636598754348	0.642904204214785	0.0253726679873826	0.0167960751443646	0.0339492608304006	0.0186460029137823	1.91484402744727e-05	-0.000299601540440934
"260a"	"26000000"	"Duck Pier,NC"	"atlantic"	36.18	-75.87	"USA"	1978	2016	4.65948134369185	1978	2016	2.28201123201123	0.520059148623343	-0.0756471112828444	-0.250934739061825	0.0996405164961359	0.136675540165319	0.0995914452105649	0.173759635120073	0.00799845940996718	0.000357996834745379	-0.0012004724326856
"823a"	"82300000"	"Ny-Alesund"	"atlantic"	78.93	11.95	"Norway"	1976	2014	-4.79231387850546	1976	2014	2.15380835380835	0.429238968444689	-0.212717208096902	-0.37797783459571	-0.0474565815980946	0.100501692589448	0.0737349745147012	0.127268410664195	0.0071095580990358	0.000186506540857187	-0.000914943460043545
"702a"	"70200000"	"Luderitz"	"atlantic"	-26.65	15.15	"South Africa"	1958	1995	1.18597198234504	1958	1995	1.81585488868074	0.405720344248136	-0.292761241626344	-0.463955765764907	-0.121566717487781	0.0731112245434306	0.0524110541480106	0.0938113949388506	0.00762928003735139	0.000111545398349994	-0.000778320262652202
"276a"	"27600000"	"St. John's-A"	"atlantic"	47.57	-52.7	"Canada"	1952	1989	2.1798445456982	1952	1989	2.42096541786744	0.515967982606723	-0.0740822744612506	-0.279273741918389	0.131109192995888	0.107114884882121	0.0761470298350456	0.138082739929196	0.0109602992723494	0.000249646837563488	-0.00125357377423362
"765a"	"76500000"	"Grand Isle,LA"	"atlantic"	29.38	-90.02	"USA"	1980	2016	7.55168326220959	1980	2016	2.02691453940067	0.342284532341263	0.53231671071432	0.190129672731309	0.874503748697331	0.0860622059605706	0.0523206358025394	0.119803776118602	0.0304811204360195	0.000296370105699486	-0.00168674041381717
"240a"	"24000000"	"Fernandina Beach"	"atlantic"	30.72	-81.47	"USA"	1981	2016	2.30404883109166	1981	2016	2.11111111111111	0.499722985110697	0.112550501479166	-0.10228032733095	0.327381330289282	0.0683755174149391	0.0471957426814971	0.0895552921483811	0.0120142599885795	0.000116774089921988	-0.000708400079729975
"700a"	"70000000"	"Faraday"	"atlantic"	-65.25	-64.27	"United Kingdom"	1978	2013	3.05338972162742	1978	2013	2.05555555555556	0.530315260803989	0.146758610175978	-0.225676470421984	0.51919369077394	0.0718763327804399	0.0406030519968108	0.103149613564069	0.0361081286392514	0.000254595490052651	-0.00243057721895285
"805a"	"80500000"	"Vardo"	"atlantic"	70.33	31.1	"Norway"	1979	2014	-1.3482916465245	1979	2014	2	0.685129045236185	-0.137216545060196	-0.299659760240673	0.0252266701202808	0.141956069834725	0.10212907540924	0.181783064260211	0.00686921281467819	0.000412913312104966	-0.00120847388009249
"254a"	"25400000"	"Limetree Bay"	"atlantic"	17.82	-64.78	"USA"	1982	2016	3.07829887412664	1982	2016	1.82853566958698	0.152412207468645	0.588552043989029	0.187631767545855	0.989472320432202	0.01922433506006	0.0106748241670286	0.0277738459530914	0.041842715376089	1.90277027352997e-05	-0.000520272886792372
"770a"	"77000000"	"Corpus Cristi,TX"	"atlantic"	27.7	-97.22	"USA"	1983	2016	4.3899193548387	1983	2016	1.73522425316048	0.410395441067608	0.144846611126962	-0.18165049341634	0.471343715670264	0.124187581677178	0.0729403948542715	0.175434768500085	0.0277499679811478	0.000683665836300015	-0.00309662675527226
"218b"	"21800000"	"Funchal-B"	"atlantic"	32.73	-17.03	"Portugal"	1982	2013	2.68712518029304	1982	2013	1.90625	0.504509792980661	-0.409569943045289	-0.648606368638168	-0.17053351745241	0.0806262243410767	0.0539350884939511	0.107317360188202	0.0148741442840445	0.000185454736354818	-0.00152180132378218
"289a"	"28900000"	"Gibraltar-A"	"atlantic"	36.13	-5.35	"United Kingdom"	1961	1992	-0.26628025912036	1961	1992	1.71875	0.313145961031058	-0.0519801515596047	-0.355023135783595	0.251062832664385	0.0451763169854423	0.0270493974556454	0.0633032365152391	0.0239062956480652	8.55365700836429e-05	-0.00111886325015638
"259b"	"25900000"	"Bermuda-B"	"atlantic"	32.43	-64.73	"United Kingdom"	1985	2016	2.24801473598037	1985	2016	1.40625	0.340770222089307	-0.175415200915007	-0.476971757571069	0.126141355741055	0.0840481850106651	0.0490384873794116	0.119057882641919	0.0236723497782619	0.000319066007327478	-0.00225901250998673
"766a"	"76600000"	"Sabine Pass N,TX"	"atlantic"	29.85	-93.9	"USA"	1985	2016	6.10735551663735	1985	2016	1.9375	0.426693744470993	0.36939064339114	0.0870791589331713	0.651702127849109	0.0852039136311496	0.0541231458043003	0.116284681457999	0.0207472676337217	0.000251470645345082	-0.00107148089357679
